City_ID,City,Lat,Lng,Max Temp,Humidity,Cloudiness,Wind Speed,Country,Date
0,bungu,-7.6337,39.0582,77.38,55,21,8.61,TZ,1690006652
1,kabo,7.6994,18.629,74.07,83,68,3.33,CF,1690006652
2,codrington,-38.2667,141.9667,55.98,72,97,8.19,AU,1690006652
3,chumikan,54.7183,135.315,74.39,40,35,6.67,RU,1690006652
4,viransehir,37.2353,39.7631,99.03,12,0,3.85,TR,1690006653
5,carnarvon,-24.8667,113.6333,73.76,23,0,19.3,AU,1690006653
6,narsaq,60.9167,-46.05,46.62,88,66,1.88,GL,1690006653
7,xuddur,4.1213,43.8894,74.66,73,80,21.07,SO,1690006654
8,ponta do sol,32.6667,-17.1,72.23,73,1,6.2,PT,1690006654
9,punta arenas,-53.15,-70.9167,26.92,74,99,6.85,CL,1690006654
10,san quintin,30.4833,-115.95,66.34,86,6,8.68,MX,1690006654
11,muisne,0.6,-80.0333,78.35,85,100,6.33,EC,1690006655
12,avarua,-21.2078,-159.775,68.05,88,75,5.75,CK,1690006655
13,ushuaia,-54.8,-68.3,28.06,69,40,11.5,AR,1690006655
14,taltal,-25.4,-70.4833,61.52,75,92,2.19,CL,1690006655
15,kapaa,22.0752,-159.319,80.92,81,40,12.66,US,1690006655
16,south valley,35.0101,-106.6781,78.28,55,40,25.32,US,1690006656
17,cabo san lucas,22.8909,-109.9124,89.62,72,1,12.46,MX,1690006358
18,bambous virieux,-20.3428,57.7575,77.25,65,20,12.66,MU,1690006656
19,mar del plata,-38.0023,-57.5575,62.1,93,100,3.0,AR,1690006374
20,truro,50.2653,-5.0544,59.76,94,75,11.5,GB,1690006657
21,masinigudi,11.5667,76.6667,72.21,82,99,8.43,IN,1690006657
22,bredasdorp,-34.5322,20.0403,44.37,68,100,4.47,ZA,1690006657
23,port elizabeth,-33.918,25.5701,56.21,81,80,5.19,ZA,1690006657
24,carndonagh,55.25,-7.2667,60.42,98,100,3.09,IE,1690006657
25,kilindoni,-7.9139,39.6668,77.68,80,11,18.79,TZ,1690006658
26,port alfred,-33.5906,26.891,64.65,60,63,13.73,ZA,1690006658
27,namibe,-15.1961,12.1522,63.61,87,14,5.48,AO,1690006658
28,severo-kurilsk,50.6789,156.125,54.72,84,34,10.25,RU,1690006658
29,mataura,-46.1927,168.8643,38.66,80,4,5.91,NZ,1690006659
30,arraial do cabo,-22.9661,-42.0278,69.22,75,56,16.87,BR,1690006659
31,villarrica,-25.75,-56.4333,75.09,52,7,11.05,PY,1690006659
32,chokurdakh,70.6333,147.9167,57.94,44,19,6.31,RU,1690006659
33,qaanaaq,77.484,-69.3632,42.78,68,92,1.12,GL,1690006522
34,lancaster,40.2504,-76.2499,69.3,84,0,4.61,US,1690006459
35,acari,-15.4311,-74.6158,65.25,78,58,4.14,PE,1690006660
36,olinda,-8.0089,-34.8553,78.53,73,75,11.5,BR,1690006535
37,agua dulce,18.1333,-94.1333,79.09,85,94,5.57,MX,1690006660
38,margate,51.3813,1.3862,57.87,78,100,5.01,GB,1690006660
39,macau,22.2006,113.5461,95.86,74,20,8.05,MO,1690006660
40,bilma,18.6853,12.9164,88.97,39,14,8.14,NE,1690006400
41,ixtapa,20.7,-105.2,78.01,92,98,2.86,MX,1690006661
42,albany,42.6001,-73.9662,64.63,92,1,6.42,US,1690006558
43,barrow,71.2906,-156.7887,50.02,87,75,4.61,US,1690006661
44,lorengau,-2.0226,147.2712,85.26,70,28,7.54,PG,1690006662
45,concordia,-31.393,-58.0209,71.78,84,100,18.01,AR,1690006655
46,faanui,-16.4833,-151.75,76.6,65,57,13.02,PF,1690006662
47,rikitea,-23.1203,-134.9692,71.47,61,28,16.11,PF,1690006663
48,khash,28.2211,61.2158,94.05,21,67,8.37,IR,1690006663
49,ndola,-12.9587,28.6366,61.05,66,4,9.22,ZM,1690006464
50,vila,42.0304,-8.1588,51.69,94,20,4.45,PT,1690006663
51,saskylakh,71.9167,114.0833,63.59,48,96,14.05,RU,1690006663
52,neftcala,39.3742,49.2472,84.78,57,1,12.73,AZ,1690006664
53,hobart,-42.8794,147.3294,57.06,62,75,6.91,AU,1690006584
54,portland,45.5234,-122.6762,75.18,57,0,5.75,US,1690006509
55,caravelas,-17.7125,-39.2481,70.39,67,48,9.53,BR,1690006664
56,launceston,-41.45,147.1667,53.62,84,75,10.36,AU,1690006665
57,hofn,64.2539,-15.2082,49.82,83,96,5.12,IS,1690006665
58,owatonna,44.0839,-93.226,66.56,84,0,0.0,US,1690006665
59,hasaki,35.7333,140.8333,91.29,74,42,9.53,JP,1690006665
60,mazamari,-11.3258,-74.5308,69.48,80,63,2.06,PE,1690006665
61,namatanai,-3.6667,152.4333,82.53,76,86,10.31,PG,1690006666
62,jamestown,42.097,-79.2353,60.71,98,0,1.01,US,1690006245
63,garelochhead,56.082,-4.8291,56.01,97,99,3.06,GB,1690006666
64,bluff,-46.6,168.3333,43.84,70,9,11.39,NZ,1690006666
65,butaritari,3.0707,172.7902,82.81,75,17,4.85,KI,1690006666
66,puerto ayora,-0.7393,-90.3518,76.37,81,98,10.74,EC,1690006667
67,merauke,-8.4667,140.3333,81.61,65,22,19.22,ID,1690006667
68,partyzany,46.3314,34.7503,76.53,44,2,6.55,UA,1690006668
69,hilo,19.7297,-155.09,82.27,87,100,3.44,US,1690006668
70,katsuura,35.1333,140.3,84.22,71,5,11.12,JP,1690006668
71,provideniya,64.3833,-173.3,50.97,93,100,3.96,RU,1690006668
72,hermanus,-34.4187,19.2345,51.01,60,100,7.61,ZA,1690006669
73,huarmey,-10.0681,-78.1522,67.15,87,28,9.4,PE,1690006539
74,constitucion,-35.3333,-72.4167,53.26,87,100,8.57,CL,1690006669
75,tripoli,32.8752,13.1875,88.2,36,0,6.13,LY,1690006487
76,nome,64.5011,-165.4064,54.16,93,100,8.05,US,1690006669
77,khatanga,71.9667,102.5,62.71,52,100,7.67,RU,1690006670
78,vaini,-21.2,-175.2,73.56,88,75,4.61,TO,1690006670
79,mendi,-6.1761,143.6513,59.2,100,94,2.35,PG,1690006670
80,wad rawah,15.1603,33.1397,87.33,53,73,21.21,SD,1690006670
81,kavieng,-2.5744,150.7967,83.53,74,46,7.63,PG,1690006671
82,port hedland,-20.3167,118.5667,82.45,13,0,18.41,AU,1690006671
83,imbituba,-28.24,-48.6703,66.85,92,8,12.93,BR,1690006671
84,luganville,-15.5333,167.1667,73.04,93,100,6.2,VU,1690006671
85,milkovo,54.7167,158.6167,73.8,73,62,3.22,RU,1690006671
86,yilan,24.757,121.753,92.55,66,89,7.14,TW,1690006672
87,vaitape,-16.5167,-151.75,76.59,65,56,13.0,PF,1690006672
88,bereda,43.2686,-7.5406,58.57,94,95,2.75,ES,1690006672
89,ludvika,60.1496,15.1878,57.0,75,31,6.55,SE,1690006672
90,husavik,66.0449,-17.3389,49.08,75,100,3.65,IS,1690006672
91,east london,-33.0153,27.9116,65.34,55,0,12.66,ZA,1690006654
92,dingle,10.9995,122.6711,82.96,79,97,12.44,PH,1690006673
93,tasiilaq,65.6145,-37.6368,41.16,98,100,3.29,GL,1690006673
94,alofi,-19.0595,-169.9187,75.09,94,22,4.61,NU,1690006674
95,dikson,73.5069,80.5464,36.3,86,48,22.93,RU,1690006674
96,vyartsilya,62.1764,30.693,55.62,93,100,8.97,RU,1690006674
97,mandalgovi,45.7625,106.2708,67.71,55,100,17.92,MN,1690006674
98,havelock,34.8791,-76.9013,80.94,88,75,0.0,US,1690006675
99,atuona,-9.8,-139.0333,79.0,71,5,14.81,PF,1690006675
100,mahebourg,-20.4081,57.7,77.29,65,20,12.66,MU,1690006675
101,salalah,17.0151,54.0924,78.89,100,100,8.05,OM,1690006675
102,wanxian,30.8039,108.3897,92.01,64,14,1.9,CN,1690006675
103,san luis,-33.295,-66.3356,52.99,60,96,2.53,AR,1690006676
104,qaqortoq,60.7167,-46.0333,42.84,97,76,0.69,GL,1690006676
105,timmins,48.4669,-81.3331,48.02,81,0,2.3,CA,1690006502
106,baykit,61.67,96.37,86.56,24,0,9.69,RU,1690006676
107,saint-philippe,-21.3585,55.7679,72.1,85,83,14.45,RE,1690006677
108,sao joao da barra,-21.6403,-41.0511,67.96,72,33,7.16,BR,1690006505
109,port blair,11.6667,92.75,86.04,79,75,9.22,IN,1690006677
110,empalme,27.9667,-110.8167,90.55,62,55,1.52,MX,1690006677
111,bethel,41.3712,-73.414,69.67,86,0,0.0,US,1690006515
112,richards bay,-28.783,32.0377,59.23,76,1,13.02,ZA,1690006677
113,yellowknife,62.456,-114.3525,66.72,48,100,6.91,CA,1690006678
114,cascais,38.6979,-9.4215,67.93,82,20,15.01,PT,1690006678
115,kodiak,57.79,-152.4072,58.51,77,0,4.61,US,1690006678
116,nola,40.922,14.5329,87.31,57,1,3.02,IT,1690006678
117,pevek,69.7008,170.3133,36.41,96,99,16.24,RU,1690006679
118,castro,-24.7911,-50.0119,53.2,99,12,4.7,BR,1690006679
119,emerald,-23.5333,148.1667,77.34,26,2,7.94,AU,1690006679
120,road town,18.4167,-64.6167,82.49,77,59,16.33,VG,1690006545
121,jacareacanga,-6.2222,-57.7528,69.01,55,10,2.68,BR,1690006680
122,lavrentiya,65.5833,-171.0,46.18,98,100,3.24,RU,1690006680
123,mafeteng,-29.823,27.2374,43.41,81,70,14.74,LS,1690006611
124,biak,-0.9131,122.8766,82.09,67,36,9.13,ID,1690006680
125,touros,-5.1989,-35.4608,71.76,85,2,13.24,BR,1690006681
126,vestmannaeyjar,63.4427,-20.2734,50.81,82,58,15.05,IS,1690006681
127,zabol,32.25,67.25,89.29,18,26,9.89,AF,1690006681
128,chuy,-33.6971,-53.4616,62.42,89,83,9.73,UY,1690006682
129,rhyl,53.3196,-3.4886,58.84,92,100,1.01,GB,1690006682
130,lebu,-37.6167,-73.65,50.2,89,100,8.19,CL,1690006683
131,georgetown,5.4112,100.3354,90.95,78,20,10.36,MY,1690006674
132,nikolskoye,59.7035,30.7861,65.79,68,100,11.81,RU,1690006684
133,norman wells,65.282,-126.8329,77.04,44,100,4.61,CA,1690006685
134,new norfolk,-42.7826,147.0587,56.7,94,96,2.37,AU,1690006685
135,busselton,-33.65,115.3333,59.83,71,14,6.96,AU,1690006685
136,mugur-aksy,50.35,90.5,66.78,43,94,4.47,RU,1690006687
137,airai,-8.9266,125.4092,69.71,50,21,4.36,TL,1690006688
138,fukue,32.6881,128.8419,84.56,84,75,11.5,JP,1690006688
139,kochubey,44.3861,46.5825,87.96,40,22,7.18,RU,1690006689
140,yangjiang,21.85,111.9667,87.94,69,100,7.49,CN,1690006690
141,leningradskiy,69.3833,178.4167,49.98,86,90,4.54,RU,1690006690
142,pizarro,4.9533,-77.366,79.72,87,100,3.51,CO,1690006691
143,borogontsy,62.6683,131.1683,70.81,40,41,9.78,RU,1690006691
144,kenai,60.5544,-151.2583,68.09,77,100,4.61,US,1690006559
145,aykhal,66.0,111.5,80.04,37,58,18.21,RU,1690006692
146,eureka,40.8021,-124.1637,58.19,94,12,5.99,US,1690006692
147,ahipara,-35.1667,173.1667,54.82,87,98,7.92,NZ,1690006693
148,huadian,42.9633,126.7478,85.3,65,97,4.43,CN,1690006693
149,koriyama,37.4,140.3833,86.13,65,75,5.75,JP,1690006682
150,sitka,57.0531,-135.33,60.69,77,100,4.61,US,1690006695
151,khorixas,-20.3667,14.9667,60.3,17,0,4.34,NA,1690006695
152,cidreira,-30.1811,-50.2056,61.79,94,66,11.77,BR,1690006695
153,abnub,27.2696,31.1511,91.02,19,2,13.47,EG,1690006695
154,iqaluit,63.7506,-68.5145,40.73,100,75,0.0,CA,1690006696
155,kempten,47.7267,10.3139,59.29,92,26,1.07,DE,1690006544
156,ucluelet,48.9329,-125.5528,61.09,90,52,1.88,CA,1690006696
157,talcahuano,-36.7167,-73.1167,49.68,100,0,3.44,CL,1690006697
158,tuban,-6.8976,112.0649,86.97,52,9,9.66,ID,1690006698
159,ribeira grande,38.5167,-28.7,67.77,88,40,8.01,PT,1690006698
160,ipixuna,-1.7625,-48.8043,70.2,78,8,3.2,BR,1690006699
161,baruun-urt,46.6806,113.2792,76.69,40,9,13.4,MN,1690006699
162,smithers,54.7804,-127.1743,57.52,94,75,0.0,CA,1690006699
163,tam ky,15.5667,108.4833,87.71,64,33,8.63,VN,1690006700
164,taoudenni,22.6783,-3.9836,92.82,15,15,3.4,ML,1690006700
165,nelson bay,-32.7167,152.15,62.01,70,71,11.01,AU,1690006700
166,cape town,-33.9258,18.4232,54.37,62,0,5.75,ZA,1690006701
167,yeppoon,-23.1333,150.7333,80.38,55,5,10.8,AU,1690006701
168,usinsk,65.9939,57.5281,63.54,91,100,2.84,RU,1690006701
169,thompson,55.7435,-97.8558,60.96,94,75,3.44,CA,1690006701
170,winnemucca,40.973,-117.7357,69.85,21,0,0.0,US,1690006702
171,guerrero negro,27.9769,-114.0611,67.23,82,47,13.22,MX,1690006702
172,suntar,62.1444,117.6319,83.1,45,91,5.88,RU,1690006702
173,chiang khong,20.2613,100.4046,93.27,52,80,2.98,TH,1690006703
174,broken hill,-31.95,141.4333,56.34,43,26,9.48,AU,1690006703
175,buluang,13.3068,123.3425,85.17,77,54,8.08,PH,1690006703
176,nesbyen,60.5681,9.1027,56.35,90,100,2.3,NO,1690006703
177,coihaique,-45.5752,-72.0662,30.54,98,100,4.16,CL,1690006704
178,torbay,47.6666,-52.7314,68.88,94,100,2.3,CA,1690006704
179,kaseda,31.4167,130.3167,80.46,85,100,4.76,JP,1690006636
180,manzhouli,49.6,117.4333,58.86,85,100,19.19,CN,1690006705
181,isabela,6.7085,121.9711,82.45,71,76,12.17,PH,1690006705
182,atar,20.5169,-13.0499,88.72,27,65,1.66,MR,1690006705
183,senekal,-28.3197,27.6208,45.82,79,66,9.31,ZA,1690006705
184,dunedin,-45.8742,170.5036,42.8,69,6,1.01,NZ,1690006706
185,asfi,32.2994,-9.2372,68.29,85,2,16.24,MA,1690006706
186,bocana de paiwas,12.7857,-85.1227,74.41,96,99,5.12,NI,1690006706
187,nishihara,26.1842,127.7558,88.88,70,75,12.66,JP,1690006706
188,beringovskiy,63.05,179.3167,54.12,86,100,4.97,RU,1690006707
189,san miguel,13.4833,-88.1833,73.44,97,44,2.89,SV,1690006707
190,carmelo,-33.9892,-58.2856,72.1,70,100,20.29,UY,1690006707
191,calapi,11.9435,125.0206,82.67,80,100,9.24,PH,1690006707
192,ostrovnoy,68.0531,39.5131,45.37,97,100,15.84,RU,1690006708
193,riyadh,24.6877,46.7219,102.34,7,96,9.01,SA,1690006708
194,urengoy,65.9667,78.3667,75.42,59,87,7.25,RU,1690006708
195,sao filipe,14.8961,-24.4956,78.15,79,38,8.16,CV,1690006708
196,san juan,-31.5375,-68.5364,62.94,13,68,4.54,AR,1690006514
197,san pedro,14.35,121.0167,90.32,76,40,16.11,PH,1690006554
198,hobyo,5.3505,48.5268,81.57,70,93,26.11,SO,1690006709
199,pemba,-12.974,40.5178,75.9,73,20,14.97,MZ,1690006709
200,ondjiva,-17.0667,15.7333,57.58,36,0,4.81,AO,1690006710
201,palmer,42.1584,-72.3287,66.61,85,20,0.0,US,1690006710
202,mareeba,-17.0,145.4333,80.44,42,16,9.55,AU,1690006710
203,haines junction,60.7522,-137.5108,57.15,94,100,2.3,CA,1690006711
204,fujinomiya,35.2167,138.6167,82.2,73,68,4.81,JP,1690006711
205,miri,4.4148,114.0089,87.94,70,40,9.22,MY,1690006711
206,victoria,22.2855,114.1577,91.45,71,100,11.01,HK,1690006711
207,rincon,32.296,-81.2354,78.85,83,75,14.97,US,1690006712
208,celestun,20.8667,-90.4,78.76,81,48,10.31,MX,1690006712
209,hof,50.3167,11.9167,59.74,88,15,8.05,DE,1690006712
210,valparaiso,-33.0393,-71.6273,59.0,70,100,14.97,CL,1690006712
211,marica,-22.9194,-42.8186,67.91,82,67,10.71,BR,1690006713
212,gat,31.61,34.7642,91.4,23,0,2.8,IL,1690006713
213,atbasar,51.8,68.3333,77.09,37,10,9.06,KZ,1690006713
214,honavar,14.2833,74.45,80.17,84,100,15.84,IN,1690006713
215,manzanillo,20.3433,-77.1167,76.57,95,44,7.45,CU,1690006713
216,bethanien,-26.502,17.1583,49.57,17,57,5.61,NA,1690006714
217,amalapuram,16.5833,82.0167,87.4,68,97,11.63,IN,1690006714
218,necochea,-38.5473,-58.7368,52.09,82,100,3.58,AR,1690006714
219,dakar,14.6937,-17.4441,80.73,78,40,0.0,SN,1690006490
220,coquimbo,-29.9533,-71.3436,53.33,100,0,4.61,CL,1690006715
221,peruibe,-24.32,-46.9983,63.75,90,61,2.82,BR,1690006671
222,nouakchott,18.0858,-15.9785,78.73,85,14,10.8,MR,1690006715
223,linxia,35.6003,103.2064,80.29,35,5,1.79,CN,1690006715
224,lodja,-3.4833,23.4333,79.81,48,35,1.28,CD,1690006715
225,honningsvag,70.9821,25.9704,47.95,81,75,14.97,NO,1690006716
226,russell,32.3502,-85.1999,75.0,100,40,3.44,US,1690006716
227,verkhnyaya inta,65.9811,60.3094,66.9,82,98,8.41,RU,1690006716
228,kaitangata,-46.2817,169.8464,43.12,77,4,10.27,NZ,1690006716
229,osmena,10.5208,119.9258,78.22,89,100,5.06,PH,1690006717
230,koundara,12.4833,-13.3,74.39,97,71,5.28,GN,1690006717
231,bathsheba,13.2167,-59.5167,81.21,83,40,10.36,BB,1690006717
232,pinar del rio,22.4175,-83.6981,77.34,90,50,2.64,CU,1690006717
233,isangel,-19.55,169.2667,69.76,60,53,7.2,VU,1690006717
234,senanga,-16.1167,23.2667,63.37,54,29,7.2,ZM,1690006718
235,pahrump,36.2083,-115.9839,93.94,17,4,1.99,US,1690006718
236,nakamura,32.9833,132.9333,85.14,69,33,6.78,JP,1690006718
237,lopsmarka,67.3134,14.4493,57.79,94,100,5.01,NO,1690006718
238,awjilah,29.1081,21.2869,87.66,33,0,4.38,LY,1690006718
239,vila franca do campo,37.7167,-25.4333,66.61,88,46,4.12,PT,1690006719
240,zhezkazgan,47.8043,67.7144,82.38,24,0,8.95,KZ,1690006719
241,tuktoyaktuk,69.4541,-133.0374,52.47,84,64,5.35,CA,1690006719
242,coihueco,-36.6167,-71.8333,47.14,100,100,9.22,CL,1690006719
243,mamit,23.9333,92.4833,86.83,66,75,4.61,IN,1690006720
244,waddan,29.1614,16.139,84.79,29,0,4.21,LY,1690006721
245,severnyy,50.677,36.5532,69.84,60,0,7.0,RU,1690006721
246,tiksi,71.6872,128.8694,53.65,62,44,15.77,RU,1690006699
247,dohar,23.5883,90.1469,91.38,60,90,13.62,BD,1690006523
248,harbour breton,47.4833,-55.7983,60.66,99,92,6.93,CA,1690006722
249,jalu,29.0331,21.5482,88.52,27,0,5.91,LY,1690006723
250,matara,5.9485,80.5353,85.06,71,76,15.82,LK,1690006723
251,severnoye,56.3491,78.3619,67.95,92,89,6.67,RU,1690006723
252,itoman,26.1247,127.6694,89.62,70,75,12.66,JP,1690006723
253,te anau,-45.4167,167.7167,31.51,95,13,0.89,NZ,1690006724
254,flinders,-34.5833,150.8552,63.18,58,6,5.99,AU,1690006724
255,navahrudak,53.6,25.8333,60.6,68,84,7.31,BY,1690006724
256,petropavlovsk-kamchatskiy,53.0452,158.6483,73.99,60,0,6.71,RU,1690006724
257,morros,-9.4467,-46.3003,65.75,61,0,6.04,BR,1690006725
258,gushikawa,26.3544,127.8686,88.83,79,91,5.95,JP,1690006725
259,leh,34.1667,77.5833,68.11,48,62,5.79,IN,1690006725
260,belaya gora,68.5333,146.4167,56.55,49,98,9.44,RU,1690006725
261,cherskiy,68.75,161.3,50.36,62,92,18.45,RU,1690006726
262,faya,18.3851,42.4509,81.12,13,70,11.54,SA,1690006726
263,acapulco,16.8634,-99.8901,85.82,84,100,3.44,MX,1690006500
264,paita,-5.0892,-81.1144,70.36,78,0,9.98,PE,1690006726
265,pacifica,37.6138,-122.4869,66.72,86,0,16.11,US,1690006727
266,ancud,-41.8697,-73.8203,46.0,89,94,5.01,CL,1690006727
267,jiayuguan,39.8167,98.3,89.01,9,0,9.91,CN,1690006727
268,bonavista,48.6499,-53.1147,59.2,99,23,9.57,CA,1690006728
269,ilulissat,69.2167,-51.1,39.22,100,40,0.0,GL,1690006728
270,port hardy,50.6996,-127.4199,57.38,100,40,3.44,CA,1690006728
271,bulungu,-4.55,18.6,76.82,45,12,0.92,CD,1690006728
272,doha,25.2867,51.5333,102.18,50,20,4.61,QA,1690006505
273,champerico,14.3,-91.9167,82.53,81,20,5.06,GT,1690006729
274,sisimiut,66.9395,-53.6735,44.26,92,99,2.46,GL,1690006729
275,dyersburg,36.0345,-89.3856,69.94,71,0,0.0,US,1690006729
276,limbang,4.75,115.0,89.06,65,100,3.89,MY,1690006729
277,gamba,-2.65,10.0,69.98,86,77,5.14,GA,1690006729
278,los llanos de aridane,28.6585,-17.9182,72.12,64,20,21.85,ES,1690006730
279,bulgan,48.8125,103.5347,58.55,78,100,2.55,MN,1690006730
280,laguna,38.421,-121.4238,88.32,45,0,4.61,US,1690006730
281,san cristobal,7.7669,-72.225,65.59,97,100,4.5,VE,1690006730
282,grayvoron,50.4767,35.6773,67.91,59,65,4.52,RU,1690006731
283,trairi,-3.2778,-39.2689,71.46,92,26,8.12,BR,1690006731
284,blarney,51.9333,-8.5667,60.19,100,100,9.22,IE,1690006731
285,marsh harbour,26.5412,-77.0636,84.78,79,67,13.2,BS,1690006731
286,sept-iles,50.2001,-66.3821,63.12,92,100,5.75,CA,1690006567
287,upernavik,72.7868,-56.1549,39.58,92,100,21.34,GL,1690006577
288,port lincoln,-34.7333,135.8667,55.65,70,88,18.7,AU,1690006732
289,marquette,46.5333,-87.6335,57.36,90,29,1.99,US,1690006732
290,grindavik,63.8424,-22.4338,52.27,76,75,5.75,IS,1690006732
291,yankton,42.8711,-97.3973,68.11,100,0,3.44,US,1690006733
292,ust-tarka,55.5672,75.705,61.57,96,100,9.24,RU,1690006733
293,nueve de julio,-35.4444,-60.8831,57.96,99,100,4.0,AR,1690006733
294,le port,-20.9373,55.2919,76.96,85,13,4.07,RE,1690006733
295,sfantu gheorghe,45.8667,25.7833,74.82,58,49,4.43,RO,1690006733
296,shubarkuduk,49.1447,56.4872,85.05,23,36,6.98,KZ,1690006734
297,miles city,46.4083,-105.8406,74.37,38,0,6.91,US,1690006448
298,mitu,1.1983,-70.1733,70.02,98,50,1.14,CO,1690006734
299,aksu,41.1231,80.2644,96.69,17,78,4.32,CN,1690006734
300,bontang,0.1333,117.5,84.92,72,62,10.92,ID,1690006734
301,oropesa,-13.5928,-71.7719,45.82,79,0,2.04,PE,1690006735
302,lompoc,34.6391,-120.4579,62.74,95,100,5.75,US,1690006203
303,cartagena,10.3997,-75.5144,82.02,89,0,3.44,CO,1690006735
304,maltahohe,-24.8333,16.9833,50.11,20,9,7.18,NA,1690006735
305,sabha,27.0377,14.4283,87.17,21,0,11.43,LY,1690006735
306,camocim,-2.9022,-40.8411,73.42,80,2,10.74,BR,1690006736
307,abu dhabi,24.4667,54.3667,105.91,35,79,6.91,AE,1690006736
308,bandiagara,14.3501,-3.6104,84.2,60,97,7.63,ML,1690006736
309,spornoye,50.8448,37.2913,67.46,62,76,6.87,RU,1690006736
310,rio gallegos,-51.6226,-69.2181,19.45,86,0,6.91,AR,1690006736
311,luba,3.4568,8.5547,77.77,88,100,14.27,GQ,1690006737
312,bend,44.0582,-121.3153,69.08,54,0,3.44,US,1690006737
313,saint george,37.1041,-113.5841,95.59,21,0,3.0,US,1690006568
314,orange,33.7,-117.7675,81.88,86,20,3.44,US,1690006608
315,shenzhen,22.5455,114.0683,91.35,99,100,8.08,CN,1690006737
316,mabaruma,8.2,-59.7833,73.9,97,79,3.02,GY,1690006738
317,sault sainte marie,46.5168,-84.3333,58.82,92,0,10.36,CA,1690006738
318,kloulklubed,7.0419,134.2556,86.5,79,100,12.86,PW,1690006738
319,aguas formosas,-17.0822,-40.9358,61.97,96,97,2.91,BR,1690006738
320,brae,60.3964,-1.353,53.51,83,55,4.09,GB,1690006739
321,oda,35.1833,132.5,88.57,75,8,5.03,JP,1690006739
322,olavarria,-36.8927,-60.3225,52.79,90,100,6.13,AR,1690006739
323,garowe,8.4054,48.4845,83.52,47,95,33.84,SO,1690006739
324,bacolod,10.6667,122.95,79.14,89,97,13.89,PH,1690006739
325,nemuro,43.3236,145.575,62.08,90,24,14.38,JP,1690006736
326,coruripe,-10.1256,-36.1756,72.27,78,4,9.1,BR,1690006740
327,aurangabad,19.8833,75.3333,71.85,97,100,21.99,IN,1690006740
328,satipo,-11.2522,-74.6386,68.94,78,50,2.57,PE,1690006740
329,adrar,20.5022,-10.0711,87.71,37,23,18.43,MR,1690006740
330,ichinohe,40.2069,141.3017,80.08,73,52,4.72,JP,1690006741
331,cockburn town,21.4612,-71.1419,81.61,76,93,14.54,TC,1690006741
332,vostok,46.4856,135.8833,83.07,53,93,6.8,RU,1690006741
333,mazara del vallo,37.6641,12.588,92.93,69,5,4.38,IT,1690006741
334,hithadhoo,-0.6,73.0833,82.6,74,98,5.88,MV,1690006741
335,koutiala,12.3917,-5.4642,76.91,79,81,11.54,ML,1690006742
336,jiupu,41.0667,122.95,73.49,93,100,12.66,CN,1690006742
337,buraydah,26.326,43.975,99.05,7,100,11.68,SA,1690006742
338,bitung,1.4451,125.1824,92.25,74,12,13.62,ID,1690006743
339,kamen-na-obi,53.7884,81.3423,78.75,50,100,11.18,RU,1690006743
340,jawhar,2.7809,45.5005,83.26,58,65,18.28,SO,1690006743
341,puerto del rosario,28.5004,-13.8627,73.15,73,40,21.85,ES,1690006653
342,kirakira,-10.4544,161.9205,80.62,85,98,2.95,SB,1690006744
343,terrace bay,48.7834,-87.1,52.11,90,50,2.68,CA,1690006744
344,poum,-20.2333,164.0167,70.12,61,67,17.56,NC,1690006745
345,mehamn,71.0357,27.8492,46.35,87,100,12.66,NO,1690006745
346,hassleholm,56.1591,13.7664,56.75,90,99,4.54,SE,1690006745
347,puerto escondido,15.85,-97.0667,80.08,75,99,4.88,MX,1690006746
348,lope de vega,12.2983,124.6238,87.21,67,96,8.14,PH,1690006746
349,nanakuli,21.3906,-158.1547,82.35,67,0,8.05,US,1690006746
350,santa maria,-29.6842,-53.8069,70.48,73,90,11.77,BR,1690006552
351,padang,-0.9492,100.3543,87.85,69,49,5.99,ID,1690006747
352,hostotipaquillo,21.0667,-104.0667,67.64,95,88,2.68,MX,1690006747
353,the valley,18.217,-63.0578,83.1,77,8,12.06,AI,1690006747
354,camana,-16.6228,-72.7111,61.18,87,76,6.6,PE,1690006748
355,matamoros,25.5333,-103.25,84.76,29,44,16.06,MX,1690006684
356,havre-saint-pierre,50.2334,-63.5986,62.96,100,100,9.22,CA,1690006748
357,muzhi,65.3667,64.6667,66.78,81,100,5.48,RU,1690006748
358,luvianos,18.9167,-100.4,63.61,88,97,5.06,MX,1690006748
359,kahului,20.8947,-156.47,77.85,83,40,18.41,US,1690006538
360,arlit,18.7369,7.3853,86.16,47,5,6.85,NE,1690006749
361,zlitan,32.4674,14.5687,86.14,42,0,10.56,LY,1690006749
362,birjand,32.8663,59.2211,90.07,11,0,11.5,IR,1690006749
363,nanortalik,60.1432,-45.2371,40.51,96,90,7.99,GL,1690006749
364,novobiryusinskiy,56.9578,97.7076,85.57,27,100,9.15,RU,1690006750
365,pisco,-13.7,-76.2167,66.25,77,100,5.75,PE,1690006470
366,sorong,-0.8833,131.25,81.84,82,42,13.27,ID,1690006750
367,klaksvik,62.2266,-6.589,52.72,93,88,10.36,FO,1690006750
368,orebro,59.2741,15.2066,60.93,82,53,6.91,SE,1690006750
369,villacidro,39.4578,8.7406,78.48,68,58,5.12,IT,1690006751
370,kanniyakumari,8.0833,77.5667,84.25,69,98,23.35,IN,1690006751
371,ust-kulom,61.6864,53.6902,60.76,87,99,6.78,RU,1690006751
372,price,39.5994,-110.8107,77.11,26,0,4.61,US,1690006751
373,svetlogorsk,52.6333,29.7333,65.26,61,100,7.81,BY,1690006752
374,olafsvik,64.8945,-23.7142,52.32,81,98,1.97,IS,1690006752
375,maningrida,-12.0667,134.2667,84.56,46,3,9.17,AU,1690006752
376,carutapera,-1.195,-46.02,72.3,89,6,4.32,BR,1690006752
377,asau,46.4333,26.4,72.52,58,94,6.31,RO,1690006753
378,monte alegre de minas,-18.8706,-48.8808,61.93,71,1,7.58,BR,1690006753
379,tigil,57.8,158.6667,64.49,70,76,15.46,RU,1690006753
380,kadyy,57.787,43.1903,66.36,55,83,9.6,RU,1690006754
381,hohhot,40.8106,111.6522,81.91,64,75,11.18,CN,1690006754
382,korla,41.7597,86.1469,98.2,15,91,7.25,CN,1690006722
383,todos santos,23.45,-110.2167,79.66,85,0,4.43,MX,1690006754
384,hobbs,32.7026,-103.136,78.89,50,0,24.16,US,1690006755
385,tallahassee,30.4383,-84.2807,82.24,80,0,4.61,US,1690006617
386,quatre cocos,-20.2078,57.7625,77.11,64,16,17.47,MU,1690006755
387,lata,40.1629,-8.3327,61.07,96,30,2.44,PT,1690006756
388,longyearbyen,78.2186,15.6401,46.24,66,75,6.91,SJ,1690006756
389,krasnoturansk,54.3186,91.5639,75.2,53,5,6.53,RU,1690006756
390,lakes entrance,-37.8811,147.981,59.16,59,10,6.46,AU,1690006756
391,pangnirtung,66.1451,-65.7125,47.86,80,97,3.2,CA,1690006757
392,sangar,63.9242,127.4739,71.58,38,6,13.6,RU,1690006757
393,west richland,46.3043,-119.3614,83.75,33,0,6.91,US,1690006664
394,lagoa,39.05,-27.9833,68.88,82,47,2.26,PT,1690006757
395,inuvik,68.3499,-133.7218,77.86,47,40,6.91,CA,1690006758
396,marawi,7.9986,124.2928,76.68,86,80,5.37,PH,1690006758
397,kruisfontein,-34.0033,24.7314,50.59,84,99,4.36,ZA,1690006758
398,poronaysk,49.2167,143.1167,81.75,59,100,10.16,RU,1690006758
399,natal,-5.795,-35.2094,73.62,83,75,10.36,BR,1690006759
400,hay river,60.8156,-115.7999,62.58,88,75,1.14,CA,1690006759
401,ifanadiana,-21.3,47.6333,63.43,98,99,1.57,MG,1690006759
402,hervey bay,-25.2986,152.8535,67.66,58,0,15.9,AU,1690006759
403,mount isa,-20.7333,139.5,71.37,26,0,12.66,AU,1690006760
404,ayan,56.45,138.1667,68.04,58,45,12.84,RU,1690006760
405,chulman,56.8479,124.9104,71.28,54,38,10.18,RU,1690006760
406,arandis,-22.4167,14.9667,61.34,22,0,7.29,NA,1690006760
407,katherine,-14.4667,132.2667,86.32,26,10,10.36,AU,1690006761
408,chapais,49.7834,-74.8492,56.98,97,95,3.98,CA,1690006761
409,shingu,33.7333,135.9833,82.27,73,22,6.26,JP,1690006761
410,college,64.8569,-147.8028,78.75,55,20,4.61,US,1690006521
411,caarapo,-22.6342,-54.8222,66.56,53,0,9.37,BR,1690006762
412,adre,13.4667,22.2,81.77,58,73,7.09,TD,1690006762
413,broome,42.2506,-75.833,62.65,94,0,1.99,US,1690006762
414,lowestoft,52.4752,1.7516,58.01,83,100,9.64,GB,1690006762
415,souillac,-20.5167,57.5167,77.38,65,20,12.66,MU,1690006763
416,gouyave,12.1646,-61.7296,81.37,78,20,11.5,GD,1690006763
417,kifri,34.6959,44.9661,103.8,9,0,9.04,IQ,1690006763
418,grand forks,47.9417,-97.4337,66.67,88,0,6.91,US,1690006763
419,luanda,-8.8368,13.2343,68.0,88,75,4.61,AO,1690006564
420,fare,-16.7,-151.0167,76.37,64,31,12.26,PF,1690006764
421,sibu,2.3,111.8167,89.91,62,40,3.44,MY,1690006764
422,dzerzhinsk,56.2389,43.4631,67.82,64,0,6.71,RU,1690006764
423,karasuk,53.7377,78.0403,74.59,56,47,15.14,RU,1690006765
424,vao,-22.6667,167.4833,68.34,64,35,20.11,NC,1690006765
425,lasa,46.6166,10.7002,61.68,82,38,0.98,IT,1690006765
426,hattiesburg,31.3271,-89.2903,84.22,81,0,6.91,US,1690006765
427,powell river,49.8496,-124.5361,69.8,78,52,6.24,CA,1690006765
428,ola,59.5833,151.2833,66.15,86,98,9.35,RU,1690006766
429,chara,56.9064,118.2631,74.84,39,2,2.08,RU,1690006766
430,bac lieu,9.285,105.7244,80.65,84,99,13.18,VN,1690006755
431,ocala,29.1872,-82.1401,80.98,87,0,3.44,US,1690006554
432,tuatapere,-46.1333,167.6833,35.55,84,3,3.44,NZ,1690006767
433,tulun,54.5611,100.5792,81.32,33,22,13.62,RU,1690006768
434,raudeberg,61.9875,5.1352,56.95,80,47,11.43,NO,1690006768
435,evensk,61.95,159.2333,54.0,85,82,10.58,RU,1690006768
436,kumphawapi,17.1087,103.0149,89.49,60,43,6.08,TH,1690006768
437,noyabrsk,63.1994,75.4507,74.46,61,63,9.86,RU,1690006769
438,saint-ambroise,48.5501,-71.3324,62.92,98,100,4.45,CA,1690006769
439,astoria,46.1879,-123.8313,60.57,92,100,1.99,US,1690006769
440,kalmunai,7.4167,81.8167,94.57,38,98,7.18,LK,1690006769
441,zhangye,38.9342,100.4517,90.73,11,1,3.89,CN,1690006770
442,muli,2.9167,73.5667,82.83,69,96,4.79,MV,1690006770
443,sesheke,-17.4759,24.2968,60.06,65,1,5.93,ZM,1690006770
444,salamina,37.9643,23.4965,96.87,35,0,0.0,GR,1690006771
445,pastavy,55.1168,26.8326,62.01,66,58,3.09,BY,1690006771
446,naousa,40.6329,22.0534,82.81,72,0,0.96,GR,1690006771
447,el carmen de bolivar,9.7174,-75.1202,77.0,88,73,3.09,CO,1690006771
448,khuzhir,53.1939,107.3397,60.28,58,30,8.63,RU,1690006772
449,biltine,14.5333,20.9167,86.04,51,36,4.59,TD,1690006772
450,maceio,-9.6658,-35.7353,71.04,100,75,4.61,BR,1690006772
451,austin,30.2672,-97.7431,87.39,61,0,4.61,US,1690006529
452,bayir,37.2687,28.2167,87.26,29,0,7.36,TR,1690006772
453,markova,48.6758,24.4138,61.54,94,99,3.62,UA,1690006773
454,chimore,-16.9833,-65.1333,71.04,69,89,0.94,BO,1690006773
455,tucurui,-3.7661,-49.6725,68.58,67,0,2.64,BR,1690006773
456,beloha,-25.1667,45.05,67.66,61,11,11.07,MG,1690006773
457,mizan teferi,6.9833,35.5833,66.36,83,100,1.45,ET,1690006774
458,rawicz,51.6095,16.8585,64.94,67,98,13.67,PL,1690006774
459,bodden town,19.2833,-81.25,84.92,91,17,1.01,KY,1690006774
460,berdigestyakh,62.0989,126.6992,75.92,35,12,9.1,RU,1690006774
461,slupsk,54.4641,17.0287,59.45,72,75,11.32,PL,1690006774
462,mayumba,-3.432,10.6554,69.96,87,71,3.74,GA,1690006775
463,verkhnevilyuysk,63.4453,120.3167,80.2,45,54,8.28,RU,1690006775
464,tilichiki,60.4667,166.1,63.66,71,84,13.78,RU,1690006775
465,longyan,25.1072,117.0225,88.34,68,97,4.83,CN,1690006775
466,yarada,17.65,83.2667,86.32,79,100,10.36,IN,1690006775
467,dolores,-36.3132,-57.6792,66.09,92,100,6.89,AR,1690006776
468,anadyr,64.75,177.4833,63.1,77,0,11.18,RU,1690006776
469,gboko,7.3179,8.9951,73.4,96,100,8.19,NG,1690006776
470,saldanha,-33.0117,17.9442,51.08,60,100,4.23,ZA,1690006776
471,yumen,40.2833,97.2,92.28,10,2,15.77,CN,1690006776
472,novopokrovka,49.8425,36.5477,70.48,54,68,3.87,UA,1690006777
473,lodeynoye pole,60.726,33.5531,58.89,92,100,11.36,RU,1690006777
474,san pietro vernotico,40.4853,17.9997,90.03,62,0,4.61,IT,1690006777
475,karratha,-20.7377,116.8463,78.46,21,1,21.94,AU,1690006777
476,makakilo city,21.3469,-158.0858,80.92,71,0,9.22,US,1690006778
477,xining,36.6167,101.7667,78.12,28,30,3.02,CN,1690006778
478,kindu,-2.95,25.95,77.68,52,44,0.56,CD,1690006778
479,cherdyn,60.403,56.4787,68.5,56,66,8.12,RU,1690006778
480,ponta delgada,37.7333,-25.6667,66.92,88,40,3.44,PT,1690006778
481,bazarnyye mataki,54.8833,49.9333,65.62,74,87,13.4,RU,1690006779
482,naifaru,5.4444,73.3657,82.47,76,100,13.69,MV,1690006779
483,charyshskoye,51.3978,83.5598,70.27,73,99,11.92,RU,1690006779
484,lapao,-11.3833,-41.8319,64.42,81,33,12.08,BR,1690006779
485,zhuhai,22.2769,113.5678,94.86,74,20,8.05,CN,1690006779
486,mackenzie,55.2999,-123.1698,57.42,100,100,2.55,CA,1690006780
487,bengkulu,-3.8004,102.2655,82.99,76,26,10.0,ID,1690006780
488,fomboni,-12.28,43.7425,77.99,78,85,17.16,KM,1690006725
489,goderich,43.7501,-81.7165,64.9,94,0,1.14,CA,1690006780
490,portree,57.4129,-6.1942,50.52,93,54,4.7,GB,1690006781
491,luwuk,-0.9516,122.7875,84.29,67,31,8.28,ID,1690006781
492,staryy nadym,65.6118,72.6842,77.52,48,71,3.53,RU,1690006781
493,cap malheureux,-19.9842,57.6142,77.47,64,12,8.99,MU,1690006781
494,komsomolskiy,40.4272,71.7189,93.92,21,0,6.91,UZ,1690006781
495,zelenoborskiy,66.845,32.3622,51.66,75,99,9.42,RU,1690006782
496,kendari,-3.945,122.4989,81.12,69,38,6.73,ID,1690006782
497,saint-denis,48.9167,2.3333,62.11,70,0,5.75,FR,1690006782
498,keshabpur,22.9183,89.2112,92.91,60,63,16.84,BD,1690006782
499,litovko,49.2361,135.1742,88.25,27,100,8.25,RU,1690006782
500,hambantota,6.1241,81.1185,88.54,59,83,23.31,LK,1690006783
501,praia da vitoria,38.7333,-27.0667,68.76,100,20,2.73,PT,1690006783
502,tautira,-17.7333,-149.15,74.7,62,26,11.14,PF,1690006783
503,nalut,30.3333,10.85,84.72,24,0,11.9,LY,1690006783
504,valvedditturai,9.8167,80.1667,85.42,66,97,17.18,LK,1690006784
505,praia,14.9215,-23.5087,79.34,73,75,11.5,CV,1690006608
506,bara,10.3744,10.7288,75.49,86,86,4.18,NG,1690006692
507,teya,60.3778,92.6267,76.01,54,93,4.25,RU,1690006784
508,sembe,1.6481,14.5806,73.0,89,59,1.86,CG,1690006784
509,fiumicino,41.7675,12.2291,83.75,48,40,4.61,IT,1690006785
510,sabzevar,36.2126,57.6819,88.88,23,0,18.41,IR,1690006785
511,charters towers,-20.1,146.2667,77.29,25,11,12.06,AU,1690006785
512,ust-kut,56.7938,105.7672,86.23,28,0,3.2,RU,1690006785
513,bandarbeyla,9.4942,50.8122,85.44,52,40,35.1,SO,1690006785
514,saint-augustin,51.226,-58.6502,57.94,93,12,3.29,CA,1690006786
515,storslett,69.7678,21.0247,53.6,66,20,11.5,NO,1690006786
516,el alto,-4.2714,-81.2147,68.88,78,1,13.44,PE,1690006786
517,west wendover,40.7391,-114.0733,78.01,29,0,0.0,US,1690006786
518,baleshwar,21.4942,86.9317,88.88,68,100,13.62,IN,1690006786
519,kavaratti,10.5669,72.642,83.01,81,89,21.0,IN,1690006787
520,boyolangu,-8.1181,111.8935,84.97,100,20,11.88,ID,1690006787
521,groningen,53.25,6.75,59.02,87,43,6.91,NL,1690006787
522,katobu,-4.9408,122.5276,81.48,66,47,7.27,ID,1690006787
523,esperance,-33.8667,121.9,58.73,64,7,7.85,AU,1690006788
524,deputatskiy,69.3,139.9,55.24,54,81,6.06,RU,1690006788
525,ballina,-28.8667,153.5667,63.79,54,48,12.08,AU,1690006788
526,bradford,53.7939,-1.7521,55.62,94,75,5.75,GB,1690006788
527,waingapu,-9.6567,120.2641,83.44,49,63,17.87,ID,1690006788
528,severomorsk,69.0689,33.4162,50.4,73,96,17.31,RU,1690006789
529,goundam,16.4145,-3.6708,85.42,53,91,18.61,ML,1690006789
530,beroroha,-21.6667,45.1667,76.39,50,42,13.06,MG,1690006789
531,diego de almagro,-26.3667,-70.05,56.97,53,99,3.67,CL,1690006789
532,porto novo,6.4965,2.6036,75.88,91,99,6.96,BJ,1690006570
533,chantada,42.6088,-7.7712,57.69,88,85,3.74,ES,1690006790
534,along,28.1667,94.7667,97.25,45,57,3.04,IN,1690006790
535,kudahuvadhoo,2.6708,72.8944,82.56,69,91,3.76,MV,1690006759
536,benjamin hill,30.1667,-111.1,81.9,49,100,4.97,MX,1690006791
537,pilot butte,50.4668,-104.4178,62.65,82,0,2.3,CA,1690006791
538,lokosovo,61.1333,74.8167,76.96,51,81,9.26,RU,1690006791
539,inhambane,-23.865,35.3833,64.38,88,75,0.0,MZ,1690006791
540,kulhudhuffushi,6.6221,73.07,82.22,80,87,18.01,MV,1690006792
541,mbini,1.574,9.6134,74.64,84,100,10.27,GQ,1690006792
542,horsham,51.064,-0.3272,60.31,85,40,6.91,GB,1690006792
543,mashhad,36.297,59.6062,89.74,31,0,16.11,IR,1690006792
544,labe,11.3182,-12.2833,64.65,98,76,3.69,GN,1690006792
545,indramayu,-6.3264,108.32,85.42,54,9,13.89,ID,1690006635
546,hualmay,-11.0964,-77.6139,65.59,87,33,10.8,PE,1690006793
547,creston,41.0586,-94.3614,64.71,100,40,0.0,US,1690006793
548,madhupur,24.25,86.65,86.27,71,98,11.92,IN,1690006793
549,shipitsyno,61.2806,46.5208,65.55,63,41,9.6,RU,1690006793
550,takoradi,4.8845,-1.7554,74.62,92,85,8.25,GH,1690006794
551,baindur,13.8667,74.6333,80.4,86,100,16.75,IN,1690006794
552,ferkessedougou,9.6,-5.2,71.74,94,88,8.08,CI,1690006794
553,sarahan,31.5167,77.8,67.75,90,100,2.68,IN,1690006794
554,pahasu,28.1833,78.05,97.03,47,34,14.63,IN,1690006795
555,humaita,-7.5061,-63.0208,71.92,62,2,1.48,BR,1690006795
556,tacuati,-23.45,-56.5833,76.66,42,0,8.68,PY,1690006795
557,pinos,22.3,-101.5667,59.04,70,12,10.42,MX,1690006795
